City_ID,City,Country,Date,Lat,Lng,Max Temp,Humidity,Cloudiness,Wind Speed,Current Description,Rain Inches (Last 3 hrs),Snow Inches (Last 3 hrs)
0,Yellowknife,CA,2019-11-08 19:33:40,62.45,-114.38,12.2,78,40,11.41,Scattered clouds,0.0,0.0
1,Ushuaia,AR,2019-11-08 19:27:03,-54.81,-68.31,42.8,91,75,29.97,Shower rain,0.0,0.0
2,Leshukonskoye,RU,2019-11-08 19:33:41,64.9,45.76,15.87,87,100,5.93,Overcast clouds,0.0,0.0
3,Tilichiki,RU,2019-11-08 19:33:41,60.47,166.1,18.09,77,100,10.58,Overcast clouds,0.0,0.0
4,Longyearbyen,NO,2019-11-08 19:33:42,78.22,15.63,30.2,58,75,28.86,Broken clouds,0.0,0.0
5,Saint-Philippe,CA,2019-11-08 19:33:42,45.36,-73.48,33.01,63,75,16.11,Light shower snow,0.0,0.0
6,Kodiak,US,2019-11-08 19:33:42,39.95,-94.76,44.01,33,1,10.29,Clear sky,0.0,0.0
7,Hermanus,ZA,2019-11-08 19:33:43,-34.42,19.24,66.99,76,100,13.0,Overcast clouds,0.0,0.0
8,Maldonado,UY,2019-11-08 19:33:26,-34.91,-54.96,69.8,60,66,12.75,Broken clouds,0.0,0.0
9,Sabang,PH,2019-11-08 19:33:43,13.8,121.11,81.0,90,91,3.0,Light rain,0.31,0.0
10,Cape Town,ZA,2019-11-08 19:31:14,-33.93,18.42,66.99,59,100,12.75,Overcast clouds,0.0,0.0
11,Plyussa,RU,2019-11-08 19:33:43,58.42,29.37,32.22,95,28,3.62,Scattered clouds,0.0,0.0
12,Jefferson City,US,2019-11-08 19:28:49,38.58,-92.17,42.01,31,1,5.82,Clear sky,0.0,0.0
13,Port Elizabeth,US,2019-11-08 19:33:44,39.31,-74.98,45.0,28,1,12.75,Clear sky,0.0,0.0
14,Horasan,TR,2019-11-08 19:33:44,40.04,42.16,38.59,39,0,2.48,Clear sky,0.0,0.0
15,Geraldton,CA,2019-11-08 19:33:45,49.72,-86.95,17.6,52,75,11.41,Broken clouds,0.0,0.0
16,Rikitea,PF,2019-11-08 19:31:31,-23.12,-134.97,73.47,77,100,8.52,Overcast clouds,0.0,0.0
17,Albany,US,2019-11-08 19:29:18,42.65,-73.75,35.01,43,40,18.34,Shower rain,0.0,0.0
18,Bluff,AU,2019-11-08 19:33:45,-23.58,149.07,75.06,27,0,11.48,Clear sky,0.0,0.0
19,Chokurdakh,RU,2019-11-08 19:33:46,70.62,147.9,-9.66,98,100,4.34,Overcast clouds,0.0,0.0
20,Marrakesh,MA,2019-11-08 19:33:47,31.63,-7.99,64.4,39,20,8.05,Few clouds,0.0,0.0
21,Torbay,CA,2019-11-08 19:33:47,47.66,-52.73,48.2,93,90,26.4,Overcast clouds,0.0,0.0
22,Atuona,PF,2019-11-08 19:33:47,-9.8,-139.03,80.17,78,7,15.55,Clear sky,0.0,0.0
23,Busselton,AU,2019-11-08 19:31:29,-33.64,115.35,63.0,39,0,13.02,Clear sky,0.0,0.0
24,Kahului,US,2019-11-08 19:31:22,20.89,-156.47,80.6,74,20,4.7,Few clouds,0.0,0.0
25,Manokwari,ID,2019-11-08 19:33:48,-0.87,134.08,75.31,71,100,4.41,Overcast clouds,0.0,0.0
26,Comodoro Rivadavia,AR,2019-11-08 19:33:48,-45.87,-67.48,57.2,28,40,20.8,Scattered clouds,0.0,0.0
27,Thompson,CA,2019-11-08 19:33:48,55.74,-97.86,14.0,72,90,5.73,Overcast clouds,0.0,0.0
28,Bonthe,SL,2019-11-08 19:33:48,7.53,-12.5,80.2,84,39,4.63,Scattered clouds,0.0,0.0
29,Cabo San Lucas,MX,2019-11-08 19:33:35,22.89,-109.91,93.99,51,20,6.93,Few clouds,0.0,0.0
30,Rio Tuba,PH,2019-11-08 19:33:49,8.51,117.43,81.0,78,100,16.28,Overcast clouds,0.0,0.0
31,Faanui,PF,2019-11-08 19:33:49,-16.48,-151.75,81.14,77,96,20.24,Light rain,0.13,0.0
32,Chuy,UY,2019-11-08 19:33:50,-33.69,-53.46,65.37,75,0,10.83,Clear sky,0.0,0.0
33,Punta Arenas,CL,2019-11-08 19:31:31,-53.16,-70.91,46.4,52,40,26.4,Scattered clouds,0.0,0.0
34,Carnarvon,ZA,2019-11-08 19:33:50,-30.97,22.13,62.15,33,5,21.09,Clear sky,0.0,0.0
35,Kathu,ZA,2019-11-08 19:33:50,-27.7,23.05,73.0,13,96,9.57,Overcast clouds,0.0,0.0
36,Kaitangata,NZ,2019-11-08 19:33:51,-46.28,169.85,59.0,89,50,3.0,Scattered clouds,0.0,0.0
37,Vaini,IN,2019-11-08 19:33:51,15.34,74.49,65.59,95,3,0.83,Clear sky,0.0,0.0
38,Butaritari,KI,2019-11-08 19:33:51,3.07,172.79,84.74,64,100,7.09,Overcast clouds,0.0,0.0
39,Isangel,VU,2019-11-08 19:33:51,-19.55,169.27,68.0,94,20,7.56,Few clouds,0.0,0.0
40,Beira,ES,2019-11-08 19:33:52,43.2,-8.36,54.0,71,40,6.93,Scattered clouds,0.0,0.0
41,Maningrida,AU,2019-11-08 19:33:52,-12.05,134.23,79.36,75,81,2.98,Broken clouds,0.0,0.0
42,Yeniseysk,RU,2019-11-08 19:33:52,58.45,92.17,28.18,93,100,8.68,Light snow,0.0,0.94
43,Valparaiso,US,2019-11-08 19:33:52,41.47,-87.06,35.6,35,90,5.82,Overcast clouds,0.0,0.0
44,Wiarton,CA,2019-11-08 19:33:53,44.74,-81.13,33.01,74,75,4.7,Light snow,0.0,0.0
45,Sadove,UA,2019-11-08 19:33:53,46.25,30.18,59.0,100,90,8.95,Fog,0.0,0.0
46,Plettenberg Bay,ZA,2019-11-08 19:33:53,-34.05,23.37,60.24,82,48,11.01,Scattered clouds,0.0,0.0
47,Barrow,AR,2019-11-08 19:33:54,-38.31,-60.23,69.87,36,100,7.67,Overcast clouds,0.0,0.0
48,Castro,CL,2019-11-08 19:33:54,-42.48,-73.76,59.0,58,31,9.17,Scattered clouds,0.0,0.0
49,Iqaluit,CA,2019-11-08 19:33:55,63.75,-68.52,10.4,85,75,5.82,Broken clouds,0.0,0.0
50,Dikson,RU,2019-11-08 19:33:55,73.51,80.55,-2.33,97,75,12.26,Broken clouds,0.0,0.0
51,Hami,CN,2019-11-08 19:33:55,42.84,93.51,31.33,37,10,8.68,Clear sky,0.0,0.0
52,Sukumo,JP,2019-11-08 19:33:56,32.94,132.72,56.01,68,0,6.46,Clear sky,0.0,0.0
53,Faya,SA,2019-11-08 19:33:56,18.39,42.45,64.4,82,40,1.01,Scattered clouds,0.0,0.0
54,Salalah,OM,2019-11-08 19:33:56,17.01,54.1,80.6,78,20,2.24,Few clouds,0.0,0.0
55,San Cristobal,HN,2019-11-08 19:33:56,14.68,-86.92,76.14,78,62,4.54,Moderate rain,4.75,0.0
56,Cayenne,GF,2019-11-08 19:30:04,4.94,-52.33,82.4,83,75,13.87,Broken clouds,0.0,0.0
57,Port Alfred,ZA,2019-11-08 19:33:57,-33.59,26.89,60.01,79,100,4.81,Overcast clouds,0.0,0.0
58,Sao Joao Da Barra,BR,2019-11-08 19:33:57,-21.64,-41.05,86.0,58,40,16.11,Scattered clouds,0.0,0.0
59,Bambous Virieux,MU,2019-11-08 19:33:57,-20.34,57.76,69.8,77,20,3.36,Few clouds,0.0,0.0
60,Qaanaaq,GL,2019-11-08 19:33:58,77.48,-69.36,-4.49,58,0,6.42,Clear sky,0.0,0.0
61,Okhotsk,RU,2019-11-08 19:33:58,59.36,143.24,19.72,71,68,20.8,Broken clouds,0.0,0.0
62,Sur,OM,2019-11-08 19:33:58,22.57,59.53,72.66,49,0,1.36,Clear sky,0.0,0.0
63,Kavieng,PG,2019-11-08 19:33:59,-2.57,150.8,83.46,78,100,11.88,Light rain,2.25,0.0
64,Nara,JP,2019-11-08 19:33:59,34.68,135.8,46.99,76,0,1.99,Clear sky,0.0,0.0
65,Palana,RU,2019-11-08 19:34:00,59.08,159.95,34.43,80,36,28.95,Light rain,0.13,0.0
66,Shache,CN,2019-11-08 19:34:00,38.42,77.24,41.0,51,50,2.24,Scattered clouds,0.0,0.0
67,Strezhevoy,RU,2019-11-08 19:34:00,60.73,77.6,-0.41,77,100,6.71,Overcast clouds,0.0,0.0
68,Hithadhoo,MV,2019-11-08 19:34:00,-0.6,73.08,81.99,72,1,7.18,Clear sky,0.0,0.0
69,Kirakira,SB,2019-11-08 19:34:01,-10.46,161.92,77.7,82,100,4.09,Overcast clouds,0.0,0.0
70,Nikolskoye,RU,2019-11-08 19:34:01,59.7,30.79,32.0,98,90,2.24,Mist,0.0,0.0
71,Tonantins,BR,2019-11-08 19:34:01,-2.86,-67.77,83.82,80,100,1.97,Light rain,2.38,0.0
72,Las Lomas,PE,2019-11-08 19:34:01,-4.66,-80.24,88.25,34,29,10.63,Scattered clouds,0.0,0.0
73,Churu,IN,2019-11-08 19:34:02,28.3,74.97,70.27,45,1,9.24,Clear sky,0.0,0.0
74,Hilo,US,2019-11-08 19:26:31,19.71,-155.08,81.0,54,1,4.7,Clear sky,0.0,0.0
75,Lebu,ET,2019-11-08 19:34:02,8.96,38.73,52.99,67,100,0.96,Overcast clouds,0.0,0.0
76,Aksu,KZ,2019-11-08 19:34:02,52.04,76.93,39.2,86,90,17.9,Overcast clouds,0.0,0.0
77,Ponta Do Sol,BR,2019-11-08 19:34:03,-20.63,-46.0,71.62,85,100,6.76,Light rain,1.88,0.0
78,Fairbanks,US,2019-11-08 19:29:05,64.84,-147.72,17.6,78,1,9.17,Clear sky,0.0,0.0
79,Namibe,AO,2019-11-08 19:34:03,-15.19,12.15,74.48,81,65,10.51,Broken clouds,0.0,0.0
80,Puerto Carreno,CO,2019-11-08 19:32:24,6.19,-67.49,93.2,49,40,6.93,Shower rain,0.0,0.0
81,Mataura,NZ,2019-11-08 19:34:04,-46.19,168.86,55.0,93,99,4.0,Overcast clouds,0.0,0.0
82,Tateyama,JP,2019-11-08 19:34:04,36.66,137.31,43.0,71,0,2.37,Clear sky,0.0,0.0
83,Bilma,NE,2019-11-08 19:34:05,18.69,12.92,79.21,16,0,6.87,Clear sky,0.0,0.0
84,Estremoz,PT,2019-11-08 19:34:05,38.84,-7.59,51.8,57,0,8.05,Clear sky,0.0,0.0
85,Tasiilaq,GL,2019-11-08 19:34:05,65.61,-37.64,33.8,80,100,41.38,Overcast clouds,0.0,0.0
86,Kruisfontein,ZA,2019-11-08 19:34:06,-34.0,24.73,55.09,85,61,6.71,Broken clouds,0.0,0.0
87,Itaituba,BR,2019-11-08 19:34:06,-4.26,-55.99,86.0,74,40,5.82,Scattered clouds,0.0,0.0
88,Sun Valley,US,2019-11-08 19:30:51,39.6,-119.78,62.01,20,1,4.94,Clear sky,0.0,0.0
89,Matadi,CD,2019-11-08 19:34:06,-5.83,13.46,78.04,87,93,3.8,Light rain,0.25,0.0
90,Nikolayevka,RU,2019-11-08 19:34:07,46.73,38.57,55.83,77,65,5.75,Broken clouds,0.0,0.0
91,Alyangula,AU,2019-11-08 19:34:07,-13.85,136.42,73.4,94,0,2.48,Clear sky,0.0,0.0
92,Hirara,JP,2019-11-08 19:34:08,24.8,125.28,70.47,74,0,23.4,Clear sky,0.0,0.0
93,Avarua,CK,2019-11-08 19:31:29,-21.21,-159.78,73.4,83,100,9.17,Moderate rain,4.13,0.0
94,Saskylakh,RU,2019-11-08 19:34:08,71.97,114.09,-18.12,95,56,11.01,Broken clouds,0.0,0.0
95,Lata,IN,2019-11-08 19:34:08,30.78,78.62,22.48,45,0,4.56,Clear sky,0.0,0.0
96,Khani,GE,2019-11-08 19:34:09,41.96,42.96,53.6,66,0,5.82,Clear sky,0.0,0.0
97,Sokoto,NG,2019-11-08 19:34:09,13.06,5.24,80.51,23,0,0.47,Clear sky,0.0,0.0
98,Muros,ES,2019-11-08 19:34:09,42.77,-9.06,54.0,100,40,2.24,Scattered clouds,0.0,0.0
99,Bunbury,GB,2019-11-08 19:34:10,53.12,-2.65,44.01,81,40,3.36,Scattered clouds,0.0,0.0
100,Trairi,BR,2019-11-08 19:34:10,-3.28,-39.27,79.21,64,98,6.51,Overcast clouds,0.0,0.0
101,Nanma,CN,2019-11-08 19:34:10,35.7,113.14,48.4,64,10,2.66,Clear sky,0.0,0.0
102,Cherskiy,RU,2019-11-08 19:34:10,68.75,161.3,8.78,69,68,1.01,Broken clouds,0.0,0.0
103,Georgetown,GY,2019-11-08 19:31:54,6.8,-58.16,86.0,79,40,6.93,Scattered clouds,0.0,0.0
104,Chapais,CA,2019-11-08 19:34:11,49.78,-74.86,19.4,73,90,8.05,Light snow,0.0,0.0
105,Makasar,ID,2019-11-08 19:34:11,-6.28,106.88,81.0,83,20,9.17,Few clouds,0.0,0.0
106,Lielvarde,LV,2019-11-08 19:34:12,56.72,24.81,43.0,100,90,5.82,Overcast clouds,0.0,0.0
107,Puerto Ayora,EC,2019-11-08 19:31:28,-0.74,-90.35,80.6,57,75,9.17,Broken clouds,0.0,0.0
108,San Juan,AR,2019-11-08 19:31:36,-31.54,-68.53,92.62,15,9,4.36,Clear sky,0.0,0.0
109,Adrar,DZ,2019-11-08 19:34:13,27.87,-0.29,69.8,22,7,11.41,Clear sky,0.0,0.0
110,Lagoa,PT,2019-11-08 19:34:13,37.14,-8.45,59.0,44,0,5.82,Clear sky,0.0,0.0
111,Sem,FR,2019-11-08 19:34:13,42.77,1.52,46.0,56,95,11.59,Light rain,2.0,0.0
112,Waingapu,ID,2019-11-08 19:34:13,-9.65,120.26,81.43,79,0,8.75,Clear sky,0.0,0.0
113,Vila,IT,2019-11-08 19:34:14,45.18,8.4,51.01,93,75,8.05,Broken clouds,0.0,0.0
114,Khatanga,RU,2019-11-08 19:34:14,71.98,102.47,-8.49,96,100,18.88,Light snow,0.0,0.25
115,Hamina,FI,2019-11-08 19:34:14,60.57,27.2,30.99,100,90,9.17,Overcast clouds,0.0,0.0
116,Port Lincoln,AU,2019-11-08 19:34:14,-34.72,135.86,52.07,63,39,8.57,Scattered clouds,0.0,0.0
117,Port Hardy,CA,2019-11-08 19:34:15,50.7,-127.42,50.0,81,90,4.7,Overcast clouds,0.0,0.0
118,Sim,BR,2019-11-08 19:34:15,-12.25,-38.93,76.3,69,26,9.01,Scattered clouds,0.0,0.0
119,Huaraz,PE,2019-11-08 19:34:15,-9.53,-77.53,47.88,81,90,6.8,Moderate rain,3.56,0.0
120,Cockburn Town,TC,2019-11-08 19:34:16,21.46,-71.14,84.2,74,40,9.17,Scattered clouds,0.0,0.0
121,Husavik,CA,2019-11-08 19:34:16,50.56,-96.99,28.99,75,100,10.0,Light snow,0.0,0.13
122,Jamestown,AU,2019-11-08 19:34:16,-33.21,138.6,42.89,76,6,8.08,Clear sky,0.0,0.0
123,Pevek,RU,2019-11-08 19:31:30,69.7,170.27,14.05,62,0,7.0,Clear sky,0.0,0.0
124,Reconquista,AR,2019-11-08 19:34:17,-29.14,-59.64,83.71,58,19,11.23,Few clouds,0.0,0.0
125,Tura,RU,2019-11-08 19:34:17,64.27,100.22,6.71,89,100,4.32,Overcast clouds,0.0,0.0
126,Smidovich,RU,2019-11-08 19:34:17,48.6,133.81,16.39,55,0,11.1,Clear sky,0.0,0.0
127,Ostrovnoy,RU,2019-11-08 19:34:18,68.05,39.51,17.46,92,100,6.11,Overcast clouds,0.0,0.0
128,Bredasdorp,ZA,2019-11-08 19:34:18,-34.53,20.04,64.0,67,100,17.22,Overcast clouds,0.0,0.0
129,Byron Bay,AU,2019-11-08 19:34:18,-28.65,153.62,70.0,83,75,12.75,Broken clouds,0.0,0.0
130,Cidreira,BR,2019-11-08 19:34:19,-30.17,-50.22,71.17,86,0,15.32,Clear sky,0.0,0.0
131,Friesach,AT,2019-11-08 19:34:19,46.95,14.41,44.6,93,75,2.24,Light rain,0.0,0.0
132,Severo-Kurilsk,RU,2019-11-08 19:34:19,50.68,156.12,27.46,91,98,4.12,Light snow,0.0,0.56
133,Smolyaninovo,RU,2019-11-08 19:34:19,43.29,132.46,28.4,33,0,6.71,Clear sky,0.0,0.0
134,Dingle,PH,2019-11-08 19:34:20,11.0,122.67,72.75,87,65,2.98,Broken clouds,0.0,0.0
135,Campana,AR,2019-11-08 19:34:20,-34.16,-58.96,78.01,60,19,14.99,Few clouds,0.0,0.0
136,Maniitsoq,GL,2019-11-08 19:34:20,65.42,-52.9,38.62,49,87,14.79,Overcast clouds,0.0,0.0
137,Namasuba,UG,2019-11-08 19:34:20,0.69,32.42,65.35,96,43,2.08,Light rain,1.13,0.0
138,Kyabe,TD,2019-11-08 19:34:21,9.45,18.94,78.37,34,0,1.61,Clear sky,0.0,0.0
139,Labuhan,ID,2019-11-08 19:34:21,-2.54,115.51,71.98,94,0,0.78,Clear sky,0.0,0.0
140,Touros,BR,2019-11-08 19:34:21,-5.2,-35.46,82.4,61,20,18.34,Few clouds,0.0,0.0
141,Kavaratti,IN,2019-11-08 19:34:21,10.57,72.64,81.14,72,61,7.23,Broken clouds,0.0,0.0
142,East London,ZA,2019-11-08 19:34:22,-33.02,27.91,64.4,68,40,6.93,Scattered clouds,0.0,0.0
143,Souillac,FR,2019-11-08 19:34:22,45.6,-0.6,48.2,76,90,8.05,Overcast clouds,0.0,0.0
144,Mehamn,NO,2019-11-08 19:34:23,71.03,27.85,26.6,100,75,9.17,Broken clouds,0.0,0.0
145,Vitim,RU,2019-11-08 19:34:23,59.44,112.57,24.66,95,100,9.04,Light snow,0.0,0.94
146,Aswan,EG,2019-11-08 19:34:23,24.09,32.9,75.2,29,19,9.17,Few clouds,0.0,0.0
147,Santiago,PH,2019-11-08 19:34:24,16.69,121.54,70.63,99,99,1.3,Light rain,0.19,0.0
148,Shirokiy,RU,2019-11-08 19:34:24,53.87,39.17,39.0,100,9,1.99,Clear sky,0.0,0.0
149,Phonhong,LA,2019-11-08 19:34:24,18.5,102.42,66.56,81,98,1.19,Overcast clouds,0.0,0.0
150,Haradok,BY,2019-11-08 19:34:25,55.46,29.99,40.95,91,100,7.83,Overcast clouds,0.0,0.0
151,Niquero,CU,2019-11-08 19:34:25,20.04,-77.58,82.62,74,39,3.89,Light rain,0.13,0.0
152,Esperance,AU,2019-11-08 19:34:25,-33.86,121.89,50.0,87,0,11.41,Clear sky,0.0,0.0
153,Hobart,AU,2019-11-08 19:33:44,-42.88,147.33,42.8,70,75,8.05,Broken clouds,0.0,0.0
154,Luderitz,NA,2019-11-08 19:34:26,-26.65,15.16,60.8,87,0,5.82,Clear sky,0.0,0.0
155,Dukat,AL,2019-11-08 19:34:26,40.25,19.57,60.01,85,15,19.26,Light rain,0.25,0.0
156,Santo Antonio Do Ica,BR,2019-11-08 19:34:27,-3.1,-67.94,83.82,80,100,1.97,Light rain,2.38,0.0
157,Sorland,NO,2019-11-08 19:34:27,67.67,12.69,32.0,85,40,5.82,Shower rain,0.0,0.0
158,Airai,TL,2019-11-08 19:34:27,-8.93,125.41,67.73,61,2,4.03,Clear sky,0.0,0.0
159,Miri,NG,2019-11-08 19:34:27,10.31,9.75,77.99,27,51,2.93,Broken clouds,0.0,0.0
160,Labuan,BN,2019-11-08 19:34:28,5.28,115.24,75.2,94,75,5.82,Light rain,0.0,0.0
161,Hasaki,JP,2019-11-08 19:34:28,35.73,140.83,48.2,87,75,6.93,Broken clouds,0.0,0.0
162,Hofn,IS,2019-11-08 19:34:28,64.25,-15.21,37.4,69,90,13.87,Light intensity shower rain,0.0,0.0
163,Lumbac,PH,2019-11-08 19:34:28,7.73,124.25,68.5,76,63,3.13,Broken clouds,0.0,0.0
164,Havre,US,2019-11-08 19:34:29,48.55,-109.68,54.0,61,1,14.99,Clear sky,0.0,0.0
165,Naryan-Mar,RU,2019-11-08 19:34:29,67.67,53.09,15.98,93,96,13.69,Overcast clouds,0.0,0.0
166,Ribeira Grande,PT,2019-11-08 19:34:29,38.52,-28.7,66.2,68,20,4.7,Few clouds,0.0,0.0
167,Flinders,AU,2019-11-08 19:34:29,-34.58,150.85,54.0,66,40,13.87,Scattered clouds,0.0,0.0
168,Fort Nelson,CA,2019-11-08 19:34:29,58.81,-122.69,14.0,78,90,8.05,Light snow,0.0,0.0
169,Saldanha,PT,2019-11-08 19:34:30,41.42,-6.55,42.28,81,55,9.73,Broken clouds,0.0,0.0
170,Cap Malheureux,MU,2019-11-08 19:34:30,-19.98,57.61,69.8,77,20,3.36,Few clouds,0.0,0.0
171,Eenhana,NA,2019-11-08 19:34:30,-17.48,16.34,76.8,49,24,2.3,Light rain,0.5,0.0
172,Oksfjord,NO,2019-11-08 19:34:31,70.24,22.35,30.2,86,90,5.82,Shower snow,0.0,0.0
173,Prince Rupert,CA,2019-11-08 19:34:31,54.32,-130.32,50.0,81,90,12.75,Moderate rain,0.0,0.0
174,Saint-Francois,FR,2019-11-08 19:34:31,46.42,3.91,39.2,93,43,2.24,Scattered clouds,0.0,0.0
175,Upata,VE,2019-11-08 19:34:32,8.02,-62.41,86.0,72,80,1.01,Moderate rain,4.44,0.0
176,Khashuri,GE,2019-11-08 19:34:32,42.0,43.6,45.84,53,0,4.97,Clear sky,0.0,0.0
177,Sibolga,ID,2019-11-08 19:34:32,1.74,98.78,71.35,94,100,1.7,Overcast clouds,0.0,0.0
178,Olinda,AU,2019-11-08 19:34:32,-37.84,145.39,48.99,81,90,12.75,Overcast clouds,0.0,0.0
179,Necochea,AR,2019-11-08 19:34:32,-38.55,-58.74,69.01,38,100,8.01,Overcast clouds,0.0,0.0
180,Mahebourg,MU,2019-11-08 19:34:33,-20.41,57.7,69.8,77,20,3.36,Few clouds,0.0,0.0
181,Coquimbo,CL,2019-11-08 19:34:33,-29.95,-71.34,62.6,67,75,11.41,Broken clouds,0.0,0.0
182,Kungurtug,RU,2019-11-08 19:34:33,50.6,97.53,27.19,83,99,1.3,Overcast clouds,0.0,0.0
183,Pak Phanang,TH,2019-11-08 19:34:34,8.35,100.2,75.83,87,100,2.19,Overcast clouds,0.0,0.0
184,Ugoofaaru,MV,2019-11-08 19:34:34,5.67,73.0,82.04,75,97,7.18,Overcast clouds,0.0,0.0
185,Tuktoyaktuk,CA,2019-11-08 19:34:35,69.44,-133.03,6.8,77,90,5.82,Light snow,0.0,0.0
186,Marzuq,YE,2019-11-08 19:34:35,14.4,46.47,67.12,44,0,1.34,Clear sky,0.0,0.0
187,Soe,EE,2019-11-08 19:34:35,57.91,26.05,39.99,93,86,4.7,Overcast clouds,0.0,0.0
188,Kifri,IQ,2019-11-08 19:34:35,34.69,44.96,69.53,21,0,11.52,Clear sky,0.0,0.0
189,Kampot,KH,2019-11-08 19:34:36,10.62,104.18,77.0,88,40,1.12,Scattered clouds,0.0,0.0
190,Bavly,RU,2019-11-08 19:34:36,54.4,53.24,29.1,96,100,11.45,Light snow,0.0,0.94
191,Rocha,UY,2019-11-08 19:32:26,-34.48,-54.34,61.14,77,34,10.33,Scattered clouds,0.0,0.0
192,Portland,US,2019-11-08 19:34:36,43.66,-70.25,34.0,40,75,20.8,Broken clouds,0.0,0.0
193,Buala,SB,2019-11-08 19:34:37,-8.15,159.59,81.23,78,100,1.88,Overcast clouds,0.0,0.0
194,Akodia,IN,2019-11-08 19:34:37,23.37,76.56,68.67,80,0,4.99,Clear sky,0.0,0.0
195,Samarai,PG,2019-11-08 19:34:37,-10.62,150.67,78.71,87,88,1.68,Overcast clouds,0.0,0.0
196,Saint Anthony,US,2019-11-08 19:34:37,43.97,-111.68,51.8,42,1,6.24,Clear sky,0.0,0.0
197,Zalesovo,RU,2019-11-08 19:34:38,54.0,84.74,37.98,96,100,19.28,Light rain,1.63,0.0
198,Najran,SA,2019-11-08 19:34:38,17.54,44.22,69.8,35,0,1.07,Clear sky,0.0,0.0
199,Lebyazhye,RU,2019-11-08 19:34:38,59.96,29.42,32.0,91,90,2.24,Mist,0.0,0.0
200,Mae Sai,MM,2019-11-08 19:34:38,20.44,99.89,71.6,100,40,1.79,Scattered clouds,0.0,0.0
201,Talnakh,RU,2019-11-08 19:34:39,69.49,88.39,-20.21,75,40,8.95,Scattered clouds,0.0,0.0
202,Polyarnyy,RU,2019-11-08 19:34:39,69.2,33.45,6.8,84,75,1.25,Light shower snow,0.0,0.0
203,Zalalovo,HU,2019-11-08 19:34:39,46.85,16.59,51.8,93,75,3.36,Broken clouds,0.0,0.0
204,Kamyzyak,RU,2019-11-08 19:34:39,46.12,48.08,39.2,93,7,6.71,Clear sky,0.0,0.0
205,Safford,US,2019-11-08 19:30:32,32.83,-109.71,66.2,45,1,8.05,Clear sky,0.0,0.0
206,Arraial Do Cabo,BR,2019-11-08 19:34:40,-22.97,-42.02,80.6,83,75,13.87,Broken clouds,0.0,0.0
207,Tiksi,RU,2019-11-08 19:34:40,71.64,128.87,-16.33,90,100,6.35,Overcast clouds,0.0,0.0
208,Coihaique,CL,2019-11-08 19:34:40,-45.58,-72.07,60.8,31,100,18.34,Overcast clouds,0.0,0.0
209,Pochutla,MX,2019-11-08 19:34:41,15.74,-96.47,91.99,52,20,5.82,Few clouds,0.0,0.0
210,Nixa,US,2019-11-08 19:34:41,37.04,-93.29,44.01,35,1,4.7,Light rain,0.0,0.0
211,Figeac,FR,2019-11-08 19:34:41,44.61,2.03,43.0,100,90,9.17,Overcast clouds,0.0,0.0
212,Maceio,BR,2019-11-08 19:32:01,-9.67,-35.74,84.2,62,40,18.34,Scattered clouds,0.0,0.0
213,Yanam,IN,2019-11-08 19:34:41,16.73,82.22,67.57,77,53,3.22,Broken clouds,0.0,0.0
214,Simbahan,PH,2019-11-08 19:34:42,6.3,120.58,81.82,74,37,4.72,Light rain,1.69,0.0
215,Bedesa,ET,2019-11-08 19:34:42,8.9,40.78,61.68,80,85,0.72,Light rain,0.25,0.0
216,Norman Wells,CA,2019-11-08 19:34:42,65.28,-126.83,12.2,78,75,8.05,Light snow,0.0,0.0
217,Kargil,PK,2019-11-08 19:34:42,34.56,76.13,21.7,52,0,2.98,Clear sky,0.0,0.0
218,Svetlogorsk,RU,2019-11-08 19:34:43,53.14,59.15,32.0,97,90,8.95,Heavy shower snow,0.0,0.0
219,Ancud,CL,2019-11-08 19:34:43,-41.87,-73.83,59.0,58,37,9.17,Scattered clouds,0.0,0.0
220,Batemans Bay,AU,2019-11-08 19:34:43,-35.71,150.18,37.99,84,0,5.01,Clear sky,0.0,0.0
221,Skelleftea,SE,2019-11-08 19:34:43,64.75,20.95,19.4,85,75,6.93,Broken clouds,0.0,0.0
222,Taoudenni,ML,2019-11-08 19:34:44,22.68,-3.98,75.43,19,100,7.23,Overcast clouds,0.0,0.0
223,Kapaa,US,2019-11-08 19:32:54,22.08,-159.32,77.0,73,1,5.82,Clear sky,0.0,0.0
224,Tiznit,MA,2019-11-08 19:34:44,29.7,-9.73,57.72,49,0,3.38,Clear sky,0.0,0.0
225,Zhengjiatun,CN,2019-11-08 19:34:45,43.51,123.51,31.75,49,0,6.02,Clear sky,0.0,0.0
226,Katherine,AU,2019-11-08 19:34:45,-14.47,132.26,82.4,65,14,5.82,Few clouds,0.0,0.0
227,Pisco,PE,2019-11-08 19:34:45,-13.71,-76.2,71.6,30,4,9.17,Clear sky,0.0,0.0
228,Ulladulla,AU,2019-11-08 19:34:45,-35.36,150.48,48.2,66,40,13.87,Scattered clouds,0.0,0.0
229,Ilulissat,GL,2019-11-08 19:34:46,69.22,-51.1,39.2,29,75,13.87,Broken clouds,0.0,0.0
230,Kichera,RU,2019-11-08 19:34:46,55.93,110.1,23.02,92,100,2.53,Light snow,0.0,0.13
231,Sao Paulo De Olivenca,BR,2019-11-08 19:34:46,-3.38,-68.87,84.9,72,100,2.55,Overcast clouds,0.0,0.0
232,Nanyang,CN,2019-11-08 19:34:46,33.0,112.53,54.3,56,20,2.13,Few clouds,0.0,0.0
233,Yar-Sale,RU,2019-11-08 19:34:46,66.83,70.83,-4.53,97,91,9.46,Overcast clouds,0.0,0.0
234,Sitka,US,2019-11-08 19:34:47,37.17,-99.65,59.0,50,0,13.0,Clear sky,0.0,0.0
235,Lalsot,IN,2019-11-08 19:34:47,26.56,76.33,73.4,56,20,4.7,Haze,0.0,0.0
236,Namatanai,PG,2019-11-08 19:34:47,-3.66,152.44,83.53,76,99,10.6,Overcast clouds,0.0,0.0
237,Eslov,SE,2019-11-08 19:31:13,55.84,13.3,42.8,100,100,1.12,Fog,0.0,0.0
238,Moose Factory,CA,2019-11-08 19:34:00,51.26,-80.61,19.4,48,90,13.87,Overcast clouds,0.0,0.0
239,Veydelevka,RU,2019-11-08 19:34:48,50.15,38.45,43.45,90,86,9.93,Overcast clouds,0.0,0.0
240,Sao Miguel,BR,2019-11-08 19:34:48,4.52,-61.01,73.92,82,100,2.19,Light rain,2.56,0.0
241,Zhanaozen,KZ,2019-11-08 19:34:48,43.35,52.85,48.97,33,0,12.15,Clear sky,0.0,0.0
242,Great Bend,US,2019-11-08 19:34:49,38.36,-98.78,55.99,27,1,17.22,Clear sky,0.0,0.0
243,Culfa,AZ,2019-11-08 19:34:49,38.95,45.63,44.6,65,0,9.17,Clear sky,0.0,0.0
244,Wasilla,US,2019-11-08 19:30:22,61.58,-149.44,41.0,93,1,4.61,Clear sky,0.0,0.0
245,Pershotravneve,UA,2019-11-08 19:34:50,51.38,28.88,47.53,90,100,9.84,Light rain,0.19,0.0
246,Lavrentiya,RU,2019-11-08 19:34:50,65.58,-170.99,27.59,91,98,15.77,Light snow,0.0,0.38
247,Champerico,MX,2019-11-08 19:34:50,16.38,-93.6,86.0,55,40,14.99,Scattered clouds,0.0,0.0
248,Bulgan,MN,2019-11-08 19:34:50,48.81,103.53,29.95,67,100,4.5,Overcast clouds,0.0,0.0
249,Tulun,RU,2019-11-08 19:34:51,54.56,100.58,34.54,72,100,6.44,Overcast clouds,0.0,0.0
250,Lugoba,TZ,2019-11-08 19:34:51,-6.46,38.33,73.56,95,74,2.46,Broken clouds,0.0,0.0
251,Djibo,BF,2019-11-08 19:34:51,14.1,-1.63,86.5,21,0,3.47,Clear sky,0.0,0.0
252,Guerrero Negro,MX,2019-11-08 19:34:51,27.97,-114.04,79.83,38,2,11.88,Clear sky,0.0,0.0
253,Victoria,BN,2019-11-08 19:30:08,5.28,115.24,75.2,94,75,5.82,Light rain,0.0,0.0
254,Krk,HR,2019-11-08 19:34:52,45.03,14.57,60.01,93,90,10.29,Overcast clouds,0.0,0.0
255,Kenai,US,2019-11-08 19:34:52,60.55,-151.26,44.01,87,90,9.17,Overcast clouds,0.0,0.0
256,Poum,MK,2019-11-08 19:34:52,41.28,20.71,48.2,87,20,1.12,Few clouds,0.0,0.0
257,Gamba,CN,2019-11-08 19:34:53,28.28,88.52,25.54,71,93,0.67,Overcast clouds,0.0,0.0
258,Mayskiy,RU,2019-11-08 19:34:53,43.63,44.06,48.2,61,0,6.71,Clear sky,0.0,0.0
259,Derzhavinsk,KZ,2019-11-08 19:34:53,51.1,66.31,33.28,99,100,9.04,Light rain,1.19,0.0
260,Waipawa,NZ,2019-11-08 19:34:53,-39.94,176.59,67.86,66,66,5.41,Broken clouds,0.0,0.0
261,La Sarre,CA,2019-11-08 19:34:53,48.8,-79.2,16.81,80,100,4.99,Overcast clouds,0.0,0.0
262,Nisia Floresta,BR,2019-11-08 19:34:54,-6.09,-35.21,86.0,61,20,18.34,Few clouds,0.0,0.0
263,Ginda,IN,2019-11-08 19:34:54,30.69,78.49,49.19,57,0,6.55,Clear sky,0.0,0.0
264,Jalu,LY,2019-11-08 19:34:54,29.03,21.55,66.9,45,0,6.38,Clear sky,0.0,0.0
265,Ambilobe,MG,2019-11-08 19:34:55,-13.19,49.05,77.52,71,81,9.48,Broken clouds,0.0,0.0
266,Upernavik,GL,2019-11-08 19:34:55,72.79,-56.15,5.56,67,57,9.98,Broken clouds,0.0,0.0
267,New Norfolk,AU,2019-11-08 19:34:55,-42.78,147.06,42.8,70,75,8.05,Broken clouds,0.0,0.0
268,Padang,ID,2019-11-08 19:34:55,-0.92,100.36,66.61,93,100,2.66,Overcast clouds,0.0,0.0
269,Chauk,MM,2019-11-08 19:34:56,20.89,94.82,72.79,95,100,1.59,Light rain,2.94,0.0
270,Edd,ER,2019-11-08 19:34:56,13.93,41.69,86.34,25,0,6.82,Clear sky,0.0,0.0
271,Komsomolskiy,RU,2019-11-08 19:34:56,67.55,63.78,7.25,95,100,10.02,Light snow,0.0,0.75
272,La Orilla,MX,2019-11-08 19:34:57,18.0,-102.23,88.92,63,0,5.57,Clear sky,0.0,0.0
273,Wajir,KE,2019-11-08 19:34:57,1.75,40.07,80.6,88,20,5.5,Few clouds,0.0,0.0
274,Grand Gaube,MU,2019-11-08 19:34:57,-20.01,57.66,69.8,77,20,3.36,Few clouds,0.0,0.0
275,Clarksburg,US,2019-11-08 19:31:41,39.24,-77.28,44.01,30,75,11.41,Broken clouds,0.0,0.0
276,Camacupa,AO,2019-11-08 19:34:57,-12.02,17.48,67.66,74,100,0.94,Overcast clouds,0.0,0.0
277,Russkaya Polyana,RU,2019-11-08 19:34:58,53.78,73.88,24.22,72,48,12.06,Scattered clouds,0.0,0.0
278,Fortuna,US,2019-11-08 19:34:58,40.6,-124.16,55.0,100,90,4.7,Overcast clouds,0.0,0.0
279,Honiara,SB,2019-11-08 19:34:58,-9.43,159.96,73.4,94,40,3.36,Scattered clouds,0.0,0.0
280,Gizo,IL,2019-11-08 19:34:59,31.8,34.94,72.0,60,0,3.36,Clear sky,0.0,0.0
281,Lingao,CN,2019-11-08 19:34:59,19.91,109.69,74.77,61,0,10.31,Clear sky,0.0,0.0
282,Gannan,CN,2019-11-08 19:34:59,47.92,123.49,25.61,37,0,2.55,Clear sky,0.0,0.0
283,Durusu,TR,2019-11-08 19:34:59,37.53,40.83,57.2,87,0,2.46,Clear sky,0.0,0.0
284,Vila Velha,BR,2019-11-08 19:32:57,-3.71,-38.6,86.0,55,68,13.87,Broken clouds,0.0,0.0
285,Pingshan,CN,2019-11-08 19:35:00,28.83,104.35,60.75,83,100,1.92,Overcast clouds,0.0,0.0
286,Anqing,CN,2019-11-08 19:35:00,30.51,117.04,53.42,66,0,4.47,Clear sky,0.0,0.0
287,Roebourne,AU,2019-11-08 19:35:00,-20.77,117.15,77.5,29,83,9.75,Broken clouds,0.0,0.0
288,Lompoc,US,2019-11-08 19:35:01,34.64,-120.46,81.0,30,1,14.97,Clear sky,0.0,0.0
289,Clyde River,CA,2019-11-08 19:35:01,70.47,-68.59,19.4,85,90,11.41,Light snow,0.0,0.0
290,Pacifica,US,2019-11-08 19:32:14,37.61,-122.49,71.01,82,75,4.7,Haze,0.0,0.0
291,Carballo,ES,2019-11-08 19:35:01,43.21,-8.69,55.99,71,40,6.93,Scattered clouds,0.0,0.0
292,Avera,US,2019-11-08 19:35:01,33.19,-82.53,64.4,59,1,3.36,Clear sky,0.0,0.0
293,Vanimo,PG,2019-11-08 19:35:02,-2.67,141.3,82.31,69,100,4.74,Overcast clouds,0.0,0.0
294,Abu Zabad,SD,2019-11-08 19:35:02,12.35,29.25,80.56,17,0,12.01,Clear sky,0.0,0.0
295,Barcelos,BR,2019-11-08 19:35:02,-0.97,-62.93,91.18,47,37,3.58,Scattered clouds,0.0,0.0
296,Los Llanos De Aridane,ES,2019-11-08 19:35:02,28.66,-17.92,69.8,68,75,18.34,Broken clouds,0.0,0.0
297,Saint-Pierre,FR,2019-11-08 19:35:03,48.95,4.24,41.0,86,15,4.7,Few clouds,0.0,0.0
298,Maniwaki,CA,2019-11-08 19:35:03,46.38,-75.98,27.32,57,62,6.93,Broken clouds,0.0,0.0
299,Saint George,GR,2019-11-08 19:35:03,39.45,22.34,55.4,100,20,5.35,Few clouds,0.0,0.0
300,Banda Aceh,ID,2019-11-08 19:35:03,5.56,95.32,72.46,87,91,3.11,Overcast clouds,0.0,0.0
301,San Quintin,PH,2019-11-08 19:35:03,17.54,120.52,72.45,90,88,3.58,Light rain,0.63,0.0
302,Mount Gambier,AU,2019-11-08 19:35:04,-37.83,140.78,46.4,87,90,8.05,Overcast clouds,0.0,0.0
303,Taltal,CL,2019-11-08 19:35:04,-25.41,-70.49,59.85,70,1,5.79,Clear sky,0.0,0.0
304,Fomboni,KM,2019-11-08 19:35:05,-12.28,43.74,80.71,81,31,6.29,Scattered clouds,0.0,0.0
305,Guanica,PR,2019-11-08 19:35:05,17.97,-66.91,87.01,74,90,9.17,Overcast clouds,0.0,0.0
306,Deputatskiy,RU,2019-11-08 19:35:05,69.3,139.9,-7.1,97,92,2.71,Overcast clouds,0.0,0.0
307,Kikwit,CD,2019-11-08 19:35:05,-5.04,18.82,72.81,91,99,1.14,Light rain,0.69,0.0
308,Butia,BR,2019-11-08 19:35:06,-21.88,-47.57,67.64,97,100,3.0,Heavy intensity rain,19.63,0.0
309,Nouakchott,MR,2019-11-08 19:35:06,18.08,-15.98,73.4,73,93,13.87,Overcast clouds,0.0,0.0
310,Tabuk,PH,2019-11-08 19:35:06,17.41,121.44,72.3,94,100,5.82,Moderate rain,5.44,0.0
311,Tupik,RU,2019-11-08 19:35:06,54.43,119.94,-0.93,95,35,1.16,Scattered clouds,0.0,0.0
312,Berwick,US,2019-11-08 19:35:07,29.69,-91.22,57.99,76,90,13.87,Overcast clouds,0.0,0.0
313,Correntina,BR,2019-11-08 19:35:07,-13.34,-44.63,86.29,24,0,5.53,Clear sky,0.0,0.0
314,Luganville,VU,2019-11-08 19:35:07,-15.51,167.18,73.4,100,40,2.24,Scattered clouds,0.0,0.0
315,Vila Franca Do Campo,PT,2019-11-08 19:35:08,37.72,-25.43,66.2,77,40,3.36,Scattered clouds,0.0,0.0
316,Hovd,NO,2019-11-08 19:35:08,63.83,10.7,28.99,68,75,9.17,Broken clouds,0.0,0.0
317,Bubaque,GW,2019-11-08 19:35:08,11.28,-15.83,83.97,68,47,12.1,Scattered clouds,0.0,0.0
318,Ahipara,NZ,2019-11-08 19:35:08,-35.17,173.16,66.99,100,79,18.41,Broken clouds,0.0,0.0
319,Havelock,US,2019-11-08 19:34:50,34.88,-76.9,53.6,46,75,18.34,Broken clouds,0.0,0.0
320,Alihe,CN,2019-11-08 19:35:09,50.57,123.73,14.99,75,39,2.53,Scattered clouds,0.0,0.0
321,Kalengwa,ZM,2019-11-08 19:35:09,-13.47,25.0,67.69,83,99,4.85,Light rain,0.25,0.0
322,Antofagasta,CL,2019-11-08 19:31:24,-23.65,-70.4,64.4,63,75,13.87,Broken clouds,0.0,0.0
323,Doka,SD,2019-11-08 19:35:10,13.52,35.76,80.13,53,32,6.4,Scattered clouds,0.0,0.0
324,Hearst,CA,2019-11-08 19:30:19,49.69,-83.67,20.14,62,100,6.22,Overcast clouds,0.0,0.0
325,Agadez,NE,2019-11-08 19:35:10,16.97,7.99,86.0,20,0,9.17,Clear sky,0.0,0.0
326,Pacific Grove,US,2019-11-08 19:35:10,36.62,-121.92,70.0,67,1,4.7,Clear sky,0.0,0.0
327,Axim,GH,2019-11-08 19:35:11,4.87,-2.24,77.04,84,1,3.24,Clear sky,0.0,0.0
328,Provideniya,RU,2019-11-08 19:35:11,64.42,-173.23,24.98,96,100,7.54,Snow,0.0,1.75
329,Vostochnyy,RU,2019-11-08 19:35:11,55.82,37.87,41.0,93,90,4.47,Mist,0.0,0.0
330,Quatre Cocos,MU,2019-11-08 19:35:11,-20.21,57.76,69.8,77,20,3.36,Few clouds,0.0,0.0
331,Dinajpur,BD,2019-11-08 19:35:12,25.63,88.63,71.28,83,96,4.79,Overcast clouds,0.0,0.0
332,Elko,US,2019-11-08 19:32:59,40.83,-115.76,59.0,25,1,5.19,Clear sky,0.0,0.0
333,Hamilton,CA,2019-11-08 19:31:08,43.26,-79.87,35.01,56,40,5.82,Scattered clouds,0.0,0.0
334,Vyshneve,UA,2019-11-08 19:35:13,50.39,30.37,48.2,100,90,13.42,Overcast clouds,0.0,0.0
335,Leningradskiy,RU,2019-11-08 19:35:13,69.38,178.42,17.28,76,0,8.88,Clear sky,0.0,0.0
336,Mogadishu,SO,2019-11-08 19:35:13,2.04,45.34,81.27,79,91,7.58,Overcast clouds,0.0,0.0
337,Abnub,EG,2019-11-08 19:35:14,27.27,31.15,71.6,56,0,5.82,Clear sky,0.0,0.0
338,Taksimo,RU,2019-11-08 19:35:14,56.36,114.84,5.13,95,100,1.01,Overcast clouds,0.0,0.0
339,Mar Del Plata,AR,2019-11-08 19:33:01,-46.43,-67.52,52.11,47,9,16.78,Clear sky,0.0,0.0
340,Gilgit,PK,2019-11-08 19:35:14,35.92,74.31,23.27,37,0,6.29,Clear sky,0.0,0.0
341,Thunder Bay,CA,2019-11-08 19:31:50,48.41,-89.26,27.0,38,75,4.7,Broken clouds,0.0,0.0
342,Havoysund,NO,2019-11-08 19:35:15,71.0,24.66,26.6,79,20,5.82,Few clouds,0.0,0.0
343,Vao,EE,2019-11-08 19:35:15,59.1,26.19,35.24,95,100,6.2,Overcast clouds,0.0,0.0
344,Iwanai,JP,2019-11-08 19:35:15,42.97,140.51,32.18,82,100,13.91,Light snow,0.0,0.94
345,Nuuk,GL,2019-11-08 19:35:16,64.17,-51.74,37.4,44,75,10.29,Broken clouds,0.0,0.0
346,Gazanjyk,TM,2019-11-08 19:35:16,39.24,55.52,49.1,28,0,10.22,Clear sky,0.0,0.0
347,Karla,EE,2019-11-08 19:35:16,59.37,24.93,42.01,93,75,9.17,Broken clouds,0.0,0.0
348,Pedernales,EC,2019-11-08 19:35:16,0.07,-80.05,76.68,79,63,8.61,Broken clouds,0.0,0.0
349,Mao,DO,2019-11-08 19:35:17,19.55,-71.08,91.4,49,20,14.99,Few clouds,0.0,0.0
350,Chelbasskaya,RU,2019-11-08 19:35:17,45.98,39.37,58.05,54,60,4.74,Broken clouds,0.0,0.0
351,Colares,PT,2019-11-08 19:35:17,38.8,-9.45,55.4,76,20,17.54,Few clouds,0.0,0.0
352,Skagen,SE,2019-11-08 19:35:17,58.6,13.44,42.8,100,86,3.36,Mist,0.0,0.0
353,Iquitos,PE,2019-11-08 19:35:18,-3.75,-73.25,89.6,62,75,5.82,Broken clouds,0.0,0.0
354,Lucapa,AO,2019-11-08 19:35:18,-8.42,20.74,68.54,93,100,2.15,Moderate rain,4.06,0.0
355,Goderich,CA,2019-11-08 19:35:19,43.74,-81.71,30.99,92,27,1.99,Scattered clouds,0.0,0.0
356,Mwene-Ditu,CD,2019-11-08 19:35:19,-7.01,23.45,69.26,91,100,2.46,Overcast clouds,0.0,0.0
357,Sao Filipe,CV,2019-11-08 19:35:19,14.9,-24.5,74.14,81,100,17.52,Overcast clouds,0.0,0.0
358,Neyshabur,IR,2019-11-08 19:35:19,36.21,58.79,40.08,34,0,9.13,Clear sky,0.0,0.0
359,Oussouye,SN,2019-11-08 19:35:20,12.49,-16.54,84.2,69,100,6.93,Overcast clouds,0.0,0.0
360,Kutum,SD,2019-11-08 19:35:20,14.2,24.66,71.42,22,0,5.44,Clear sky,0.0,0.0
361,Katangli,RU,2019-11-08 19:35:20,51.71,143.23,17.15,78,75,12.06,Broken clouds,0.0,0.0
362,Madang,CN,2019-11-08 19:35:20,35.32,102.79,37.17,84,100,5.46,Overcast clouds,0.0,0.0
363,Mersing,MY,2019-11-08 19:35:20,2.43,103.84,78.85,74,100,4.5,Overcast clouds,0.0,0.0
364,Santo Tomas,PH,2019-11-08 19:35:21,7.53,125.62,77.0,88,75,2.24,Broken clouds,0.0,0.0
365,Maragheh,IR,2019-11-08 19:35:21,37.39,46.24,46.4,45,0,11.41,Clear sky,0.0,0.0
366,Pithora,IN,2019-11-08 19:35:21,21.25,82.52,62.94,65,100,3.18,Overcast clouds,0.0,0.0
367,Gillette,US,2019-11-08 19:33:48,44.29,-105.5,60.01,22,1,21.92,Light rain,0.0,0.0
368,Grindavik,IS,2019-11-08 19:35:22,63.84,-22.43,41.0,73,90,36.91,Overcast clouds,0.0,0.0
369,Surami,GE,2019-11-08 19:35:22,42.02,43.56,45.84,53,0,4.97,Clear sky,0.0,0.0
370,Berlevag,NO,2019-11-08 19:35:22,70.86,29.09,14.0,85,20,11.41,Few clouds,0.0,0.0
371,Constitucion,MX,2019-11-08 19:35:23,23.99,-104.67,68.0,56,90,5.82,Overcast clouds,0.0,0.0
372,Katsuura,JP,2019-11-08 19:35:23,33.93,134.5,48.2,87,20,6.93,Few clouds,0.0,0.0
373,Lehututu,BW,2019-11-08 19:35:23,-23.92,21.83,81.86,30,100,4.38,Overcast clouds,0.0,0.0
374,Bacolod,PH,2019-11-08 19:35:24,10.68,122.95,73.2,83,2,1.83,Clear sky,0.0,0.0
375,Erdenet,MN,2019-11-08 19:35:24,49.03,104.04,30.07,62,98,3.38,Overcast clouds,0.0,0.0
376,Benicarlo,ES,2019-11-08 19:35:24,40.42,0.43,48.0,70,0,25.01,Clear sky,0.0,0.0
377,Sept-Iles,CA,2019-11-08 19:35:24,50.2,-66.38,30.99,39,40,14.99,Scattered clouds,0.0,0.0
378,Chicama,PE,2019-11-08 19:35:25,-7.84,-79.15,68.0,72,40,11.41,Scattered clouds,0.0,0.0
379,Mezen,RU,2019-11-08 19:35:25,65.85,44.24,16.25,90,100,7.78,Overcast clouds,0.0,0.0
380,Verkhnyaya Sinyachikha,RU,2019-11-08 19:35:25,57.98,61.67,16.92,85,0,2.93,Clear sky,0.0,0.0
381,Agadir,MA,2019-11-08 19:35:25,30.42,-9.58,66.2,55,0,5.82,Clear sky,0.0,0.0
382,Seoul,KR,2019-11-08 19:35:25,37.57,126.98,35.6,92,40,1.25,Scattered clouds,0.0,0.0
383,Cairns,AU,2019-11-08 19:35:26,-16.92,145.77,70.0,93,0,3.04,Clear sky,0.0,0.0
384,Suluq,LY,2019-11-08 19:35:26,31.67,20.25,65.57,68,0,6.13,Clear sky,0.0,0.0
385,Westport,US,2019-11-08 19:34:37,41.14,-73.36,41.0,29,1,17.22,Clear sky,0.0,0.0
386,Manggar,ID,2019-11-08 19:35:26,-2.88,108.27,82.67,68,0,4.45,Clear sky,0.0,0.0
387,Canilla,GT,2019-11-08 19:35:27,15.17,-90.85,62.01,67,28,8.01,Scattered clouds,0.0,0.0
388,Mirnyy,RU,2019-11-08 19:35:27,56.57,36.46,35.96,94,14,5.01,Few clouds,0.0,0.0
389,Codrington,AU,2019-11-08 19:35:27,-28.95,153.24,69.8,68,90,8.05,Overcast clouds,0.0,0.0
390,Willowmore,ZA,2019-11-08 19:35:27,-33.3,23.49,51.33,86,75,12.53,Broken clouds,0.0,0.0
391,Kondinskoye,RU,2019-11-08 19:35:28,59.65,67.41,8.08,90,0,5.48,Clear sky,0.0,0.0
392,Praia,BR,2019-11-08 19:35:28,-20.25,-43.81,91.4,33,40,5.82,Scattered clouds,0.0,0.0
393,Lagunas,PE,2019-11-08 19:35:28,-5.23,-75.68,90.01,53,73,2.33,Broken clouds,0.0,0.0
394,Kudymkar,RU,2019-11-08 19:35:28,59.01,54.66,15.55,75,0,4.32,Clear sky,0.0,0.0
395,Port Said,EG,2019-11-08 19:35:29,25.34,30.55,69.24,36,0,6.11,Clear sky,0.0,0.0
396,Aasiaat,GL,2019-11-08 19:35:29,68.71,-52.87,34.45,50,100,19.73,Overcast clouds,0.0,0.0
397,Santa Maria Del Oro,MX,2019-11-08 19:35:29,25.95,-105.37,63.73,70,100,3.67,Overcast clouds,0.0,0.0
398,Rozivka,UA,2019-11-08 19:35:29,47.51,38.15,54.77,91,22,8.3,Few clouds,0.0,0.0
399,Opuwo,NA,2019-11-08 19:30:53,-18.06,13.84,74.5,28,97,6.6,Overcast clouds,0.0,0.0
400,Pierre,US,2019-11-08 19:35:30,44.37,-100.35,46.99,60,1,11.41,Clear sky,0.0,0.0
401,Bethel,US,2019-11-08 19:35:30,60.79,-161.76,33.8,93,90,8.05,Overcast clouds,0.0,0.0
402,Inyonga,TZ,2019-11-08 19:35:30,-6.72,32.06,74.48,49,66,4.0,Broken clouds,0.0,0.0
403,Darhan,MN,2019-11-08 19:35:30,49.49,105.92,31.55,69,100,0.25,Overcast clouds,0.0,0.0
404,Alofi,NU,2019-11-08 19:35:31,-19.06,-169.92,77.0,83,75,10.29,Broken clouds,0.0,0.0
405,Puerto Colombia,CO,2019-11-08 19:35:31,10.99,-74.96,89.6,66,40,9.17,Scattered clouds,0.0,0.0
406,Vedi,AM,2019-11-08 19:35:31,39.91,44.72,42.8,75,0,2.24,Clear sky,0.0,0.0
407,La Palma,CO,2019-11-08 19:35:31,5.36,-74.39,83.1,69,33,2.75,Light rain,1.25,0.0
408,Punta De Bombon,PE,2019-11-08 19:35:31,-17.17,-71.79,62.06,83,92,7.09,Overcast clouds,0.0,0.0
409,Mazagao,BR,2019-11-08 19:35:16,-0.12,-51.29,93.2,52,40,12.75,Scattered clouds,0.0,0.0
410,Hualmay,PE,2019-11-08 19:35:32,-11.1,-77.61,71.04,60,1,9.42,Clear sky,0.0,0.0
411,Egvekinot,RU,2019-11-08 19:35:33,66.32,-179.17,15.21,63,0,8.88,Clear sky,0.0,0.0
412,Hambantota,LK,2019-11-08 19:35:33,6.12,81.12,78.8,100,40,5.82,Scattered clouds,0.0,0.0
413,Konigs Wusterhausen,DE,2019-11-08 19:35:33,52.3,13.63,48.0,93,40,8.05,Light intensity drizzle,0.0,0.0
414,Melfi,IT,2019-11-08 19:35:33,41.0,15.66,59.0,81,75,12.75,Broken clouds,0.0,0.0
415,Raton,US,2019-11-08 19:35:33,36.9,-104.44,64.99,13,1,3.18,Clear sky,0.0,0.0
416,Manaure,CO,2019-11-08 19:35:34,11.78,-72.45,95.0,44,20,17.22,Few clouds,0.0,0.0
417,Broken Hill,AU,2019-11-08 19:35:34,-31.97,141.45,46.4,61,0,12.75,Clear sky,0.0,0.0
418,Oktyabrskiy,RU,2019-11-08 19:35:34,55.61,37.97,41.0,93,90,4.47,Mist,0.0,0.0
419,Degtyarsk,RU,2019-11-08 19:35:34,56.7,60.09,15.8,92,43,4.47,Scattered clouds,0.0,0.0
420,Boyuibe,BO,2019-11-08 19:35:35,-20.43,-63.28,86.0,48,20,5.3,Few clouds,0.0,0.0
421,Tazovskiy,RU,2019-11-08 19:35:35,67.47,78.7,-11.67,95,93,12.73,Overcast clouds,0.0,0.0
422,Sungai Besar,MY,2019-11-08 19:35:35,3.68,100.99,78.8,88,75,1.12,Broken clouds,0.0,0.0
423,Lensk,RU,2019-11-08 19:35:35,60.71,114.91,18.09,95,100,4.68,Light snow,0.0,0.13
424,Thai Binh,VN,2019-11-08 19:35:36,20.45,106.33,68.0,77,40,3.36,Scattered clouds,0.0,0.0
425,Eureka,US,2019-11-08 19:35:20,40.8,-124.16,55.0,93,90,3.78,Overcast clouds,0.0,0.0
426,Diamantino,BR,2019-11-08 19:35:36,-14.4,-56.44,82.51,69,83,2.21,Broken clouds,0.0,0.0
427,Winnemucca,US,2019-11-08 19:35:36,40.97,-117.74,61.0,18,1,3.36,Clear sky,0.0,0.0
428,Polson,US,2019-11-08 19:35:37,47.69,-114.16,43.0,60,1,3.36,Clear sky,0.0,0.0
429,Virginia Beach,US,2019-11-08 19:31:18,36.85,-75.98,48.99,45,75,18.34,Broken clouds,0.0,0.0
430,Nome,US,2019-11-08 19:35:37,30.04,-94.42,53.6,81,90,10.29,Overcast clouds,0.0,0.0
431,Kulu,CD,2019-11-08 19:35:37,3.47,23.69,71.22,90,80,1.05,Broken clouds,0.0,0.0
432,Tigil,RU,2019-11-08 19:35:38,57.8,158.67,32.88,67,3,17.4,Clear sky,0.0,0.0
433,Brae,GB,2019-11-08 19:35:38,60.4,-1.35,35.6,92,0,3.36,Clear sky,0.0,0.0
434,Osmena,PH,2019-11-08 19:35:38,12.17,124.59,83.44,74,27,12.88,Scattered clouds,0.0,0.0
435,Robertsport,LR,2019-11-08 19:35:39,6.75,-11.37,82.98,76,11,7.85,Few clouds,0.0,0.0
436,Flin Flon,CA,2019-11-08 19:35:39,54.77,-101.88,17.6,78,90,5.82,Light snow,0.0,0.0
437,Shenjiamen,CN,2019-11-08 19:35:39,29.96,122.3,62.22,63,0,17.58,Clear sky,0.0,0.0
438,Umm Lajj,SA,2019-11-08 19:35:39,25.02,37.27,76.77,67,99,1.99,Overcast clouds,0.0,0.0
439,Cleethorpes,GB,2019-11-08 19:35:39,53.56,-0.03,42.8,93,75,11.41,Broken clouds,0.0,0.0
440,Tuatapere,NZ,2019-11-08 19:35:40,-46.13,167.69,55.0,93,100,4.0,Heavy intensity rain,16.38,0.0
441,Mount Isa,AU,2019-11-08 19:35:40,-20.73,139.49,73.4,25,84,20.8,Broken clouds,0.0,0.0
442,Alta Floresta,BR,2019-11-08 19:35:40,-9.87,-56.08,77.18,79,63,8.16,Light rain,1.88,0.0
443,West Wendover,US,2019-11-08 19:35:40,40.74,-114.07,44.6,48,1,4.7,Clear sky,0.0,0.0
444,Murgab,TM,2019-11-08 19:35:41,37.5,61.97,42.8,75,0,1.79,Clear sky,0.0,0.0
445,Miranda,BR,2019-11-08 19:35:41,-20.24,-56.38,91.13,46,94,4.59,Overcast clouds,0.0,0.0
446,Gat,SN,2019-11-08 19:35:41,14.69,-16.54,96.8,60,100,19.46,Overcast clouds,0.0,0.0
447,Gibara,CU,2019-11-08 19:35:41,21.11,-76.13,91.4,49,75,4.7,Broken clouds,0.0,0.0
448,Chenghai,CN,2019-11-08 19:35:41,23.46,116.77,62.6,88,0,2.24,Clear sky,0.0,0.0
449,Bojonegoro,ID,2019-11-08 19:35:42,-7.15,111.88,76.03,80,2,4.36,Clear sky,0.0,0.0
450,Meulaboh,ID,2019-11-08 19:35:42,4.14,96.13,79.92,79,67,4.32,Broken clouds,0.0,0.0
451,Arlo,HU,2019-11-08 19:35:42,48.18,20.27,47.59,98,100,1.48,Overcast clouds,0.0,0.0
452,Burgeo,CA,2019-11-08 19:35:42,47.61,-57.61,42.58,95,100,11.56,Moderate rain,5.06,0.0
453,Bonoua,CI,2019-11-08 19:35:43,5.27,-3.6,84.2,79,40,5.82,Scattered clouds,0.0,0.0
454,Port Blair,IN,2019-11-08 19:35:43,11.67,92.75,81.75,78,96,8.72,Overcast clouds,0.0,0.0
455,Pundaguitan,PH,2019-11-08 19:35:43,6.37,126.17,81.1,79,96,5.39,Moderate rain,3.06,0.0
456,Sao Miguel Do Araguaia,BR,2019-11-08 19:35:43,-13.28,-50.16,87.93,48,97,4.59,Overcast clouds,0.0,0.0
457,Altay,CN,2019-11-08 19:35:43,47.83,88.13,15.31,70,14,2.53,Few clouds,0.0,0.0
458,Imbituba,BR,2019-11-08 19:35:44,-28.24,-48.67,77.0,78,75,11.41,Broken clouds,0.0,0.0
459,Kieta,PG,2019-11-08 19:35:44,-6.22,155.63,81.72,77,0,4.56,Clear sky,0.0,0.0
460,Esmeralda,CL,2019-11-08 19:35:44,-34.33,-70.9,73.4,38,100,8.05,Overcast clouds,0.0,0.0
461,Aljezur,PT,2019-11-08 19:35:44,37.31,-8.8,59.0,65,0,19.6,Clear sky,0.0,0.0
462,Uulu,EE,2019-11-08 19:35:45,58.28,24.58,45.0,81,100,11.01,Overcast clouds,0.0,0.0
463,Sisimiut,GL,2019-11-08 19:35:45,66.94,-53.67,29.98,48,100,11.27,Overcast clouds,0.0,0.0
464,Korsakov,RU,2019-11-08 19:35:45,46.63,142.78,23.0,100,75,2.24,Light shower snow,0.0,0.0
465,Aklavik,CA,2019-11-08 19:35:45,68.22,-135.01,10.4,85,90,2.28,Light snow,0.0,0.0
466,Port Hueneme,US,2019-11-08 19:35:46,34.15,-119.2,90.0,64,1,11.41,Clear sky,0.0,0.0
467,Goure,NE,2019-11-08 19:35:46,13.98,10.27,87.01,13,0,1.01,Clear sky,0.0,0.0
468,Salinopolis,BR,2019-11-08 19:35:46,-0.61,-47.36,82.8,77,60,16.31,Light rain,0.25,0.0
469,Donskoye,RU,2019-11-08 19:35:46,45.45,41.98,57.2,47,63,4.47,Broken clouds,0.0,0.0
470,Semporna,MY,2019-11-08 19:35:47,4.48,118.61,77.0,100,75,2.21,Broken clouds,0.0,0.0
471,Nizwa,OM,2019-11-08 19:35:47,22.93,57.53,65.07,61,1,0.49,Clear sky,0.0,0.0
472,Uruzgan,AF,2019-11-08 19:35:47,32.93,66.63,35.33,32,0,4.14,Clear sky,0.0,0.0
473,Jalalabad,AF,2019-11-08 19:35:47,34.43,70.46,51.8,81,1,2.59,Mist,0.0,0.0
474,Fare,PF,2019-11-08 19:35:48,-16.7,-151.02,81.1,78,82,19.53,Light rain,0.13,0.0
475,Mangaratiba,BR,2019-11-08 19:35:48,-22.96,-44.04,77.0,88,90,8.05,Light rain,0.0,0.0
476,Hare Bay,CA,2019-11-08 19:35:48,48.86,-53.99,46.4,93,90,26.4,Light rain,0.0,0.0
477,Mobaye,CF,2019-11-08 19:35:48,4.33,21.18,73.49,88,100,0.65,Overcast clouds,0.0,0.0
478,Superior,US,2019-11-08 19:35:37,39.95,-105.17,70.0,15,1,3.36,Clear sky,0.0,0.0
479,Kariai,GR,2019-11-08 19:35:49,37.3,22.5,63.0,87,0,3.36,Clear sky,0.0,0.0
480,Wanning,AT,2019-11-08 19:35:49,48.64,13.53,46.0,87,75,12.75,Broken clouds,0.0,0.0
481,Sheltozero,RU,2019-11-08 19:35:49,61.37,35.37,32.36,93,100,7.4,Light snow,0.0,0.31
482,Havre-Saint-Pierre,CA,2019-11-08 19:35:49,50.23,-63.6,32.0,52,1,9.17,Clear sky,0.0,0.0
483,Ushumun,RU,2019-11-08 19:35:50,52.78,126.54,2.03,83,16,3.87,Few clouds,0.0,0.0
484,Gabu,CN,2019-11-08 19:35:50,34.78,103.0,32.4,88,100,0.92,Overcast clouds,0.0,0.0
485,Mecca,SA,2019-11-08 19:33:41,21.43,39.83,81.97,53,65,3.18,Broken clouds,0.0,0.0
486,Banjar,ID,2019-11-08 19:35:50,-7.37,108.54,70.02,86,88,1.79,Overcast clouds,0.0,0.0
487,Gwadar,PK,2019-11-08 19:35:51,25.12,62.33,79.88,45,0,8.9,Clear sky,0.0,0.0
488,Chengde,CN,2019-11-08 19:35:51,40.97,117.93,35.38,42,0,2.68,Clear sky,0.0,0.0
489,Port Macquarie,AU,2019-11-08 19:35:51,-31.43,152.91,61.0,51,75,14.99,Broken clouds,0.0,0.0
490,Magistralnyy,RU,2019-11-08 19:35:52,56.17,107.45,26.62,84,100,6.04,Overcast clouds,0.0,0.0
491,Sayat,TM,2019-11-08 19:35:52,38.78,63.88,41.0,65,0,4.7,Clear sky,0.0,0.0
492,Mineros,BO,2019-11-08 19:35:52,-17.12,-63.23,86.0,62,40,13.87,Scattered clouds,0.0,0.0
493,Jumla,NP,2019-11-08 19:35:53,29.28,82.18,36.14,75,0,4.63,Clear sky,0.0,0.0
494,Roros,NO,2019-11-08 19:35:53,62.57,11.38,14.0,85,75,6.93,Broken clouds,0.0,0.0
495,Porto Empedocle,IT,2019-11-08 19:35:53,37.29,13.53,55.0,59,16,3.0,Light rain,0.25,0.0
496,Chernyshevskiy,RU,2019-11-08 19:35:53,63.01,112.47,16.61,95,100,7.0,Light snow,0.0,0.56
497,Bambanglipuro,ID,2019-11-08 19:35:53,-7.95,110.28,71.47,90,60,1.59,Broken clouds,0.0,0.0
498,Oranjemund,ZA,2019-11-08 19:35:54,-28.55,16.43,60.26,77,75,6.62,Broken clouds,0.0,0.0
499,San Patricio,PY,2019-11-08 19:35:54,-26.98,-56.83,84.58,70,68,3.06,Light rain,0.25,0.0
500,Nishihara,JP,2019-11-08 19:35:54,35.74,139.53,57.99,71,90,3.36,Overcast clouds,0.0,0.0
501,Achkhoy-Martan,RU,2019-11-08 19:35:54,43.19,45.29,42.8,100,0,2.24,Mist,0.0,0.0
502,Brejo,BR,2019-11-08 19:35:55,-3.68,-42.75,84.87,59,91,10.38,Overcast clouds,0.0,0.0
503,Sant Julia De Loria,AD,2019-11-08 19:35:55,42.46,1.49,45.0,94,36,5.77,Light snow,0.0,1.19
504,Carauari,BR,2019-11-08 19:35:55,-4.88,-66.9,86.16,63,100,2.17,Overcast clouds,0.0,0.0
505,Rio Grande,BR,2019-11-08 19:32:19,-32.03,-52.1,78.8,65,40,11.41,Scattered clouds,0.0,0.0
506,Hunchun,CN,2019-11-08 19:35:55,42.86,130.36,23.4,51,14,3.47,Few clouds,0.0,0.0
507,San Jose,HN,2019-11-08 19:35:56,14.25,-87.96,82.4,65,75,12.75,Broken clouds,0.0,0.0
508,Aripuana,BR,2019-11-08 19:35:56,-9.17,-60.63,90.16,51,57,1.63,Broken clouds,0.0,0.0
509,Kaka,TM,2019-11-08 19:35:56,37.35,59.62,41.74,52,0,3.42,Clear sky,0.0,0.0
510,Zhangye,CN,2019-11-08 19:35:56,38.94,100.46,42.66,50,100,7.11,Overcast clouds,0.0,0.0
511,Liwale,TZ,2019-11-08 19:35:57,-9.8,37.92,72.88,82,42,4.0,Scattered clouds,0.0,0.0
512,Rubtsovsk,RU,2019-11-08 19:35:57,51.53,81.22,37.11,92,100,19.77,Light rain,0.31,0.0
513,Condega,NI,2019-11-08 19:35:57,13.36,-86.4,77.0,73,40,13.87,Scattered clouds,0.0,0.0
514,Narsaq,GL,2019-11-08 19:35:57,60.91,-46.05,44.6,26,75,17.22,Broken clouds,0.0,0.0
515,Atasu,KZ,2019-11-08 19:35:58,48.68,71.64,37.76,51,98,11.79,Overcast clouds,0.0,0.0
516,Trat,TH,2019-11-08 19:35:58,12.25,102.51,84.0,10,100,8.14,Overcast clouds,0.0,0.0
517,Katobu,ID,2019-11-08 19:35:58,-4.94,122.53,73.47,90,0,1.81,Clear sky,0.0,0.0
518,Delmas,HT,2019-11-08 19:35:58,18.55,-72.29,89.6,62,20,11.41,Few clouds,0.0,0.0
519,Vostok,RU,2019-11-08 19:35:58,46.45,135.83,8.22,87,100,6.53,Overcast clouds,0.0,0.0
520,Laguna,BZ,2019-11-08 19:31:29,16.17,-88.94,78.8,88,75,4.7,Broken clouds,0.0,0.0
521,Vysha,RU,2019-11-08 19:35:59,53.85,42.38,38.12,92,92,4.76,Overcast clouds,0.0,0.0
522,Calatayud,ES,2019-11-08 19:35:59,41.35,-1.64,55.4,67,80,13.87,Light rain,1.5,0.0
523,Arman,RU,2019-11-08 19:35:59,59.7,150.17,33.98,58,100,23.94,Overcast clouds,0.0,0.0
524,Misratah,LY,2019-11-08 19:36:00,32.38,15.09,71.76,58,0,17.22,Clear sky,0.0,0.0
525,Zatoka,PL,2019-11-08 19:36:00,50.04,20.52,45.0,100,90,6.93,Mist,0.0,0.0
526,Ringebu,NO,2019-11-08 19:36:00,61.53,10.14,21.0,91,0,5.01,Clear sky,0.0,0.0
527,Acatic,MX,2019-11-08 19:36:00,20.78,-102.91,81.0,47,40,5.82,Scattered clouds,0.0,0.0
528,Kurchum,KZ,2019-11-08 19:36:01,48.57,83.65,36.27,56,62,12.57,Broken clouds,0.0,0.0
529,Tougan,BF,2019-11-08 19:36:01,13.07,-3.07,88.16,29,15,2.91,Few clouds,0.0,0.0
530,Mayahi,NE,2019-11-08 19:36:01,13.95,7.67,83.48,13,0,3.65,Clear sky,0.0,0.0
531,Harper,US,2019-11-08 19:36:01,30.3,-99.24,48.0,93,90,9.17,Overcast clouds,0.0,0.0
532,Balkhash,KZ,2019-11-08 19:36:02,46.84,74.98,35.69,46,100,6.15,Overcast clouds,0.0,0.0
533,Nanortalik,GL,2019-11-08 19:36:02,60.14,-45.24,36.41,70,100,6.26,Overcast clouds,0.0,0.0
534,Cabedelo,BR,2019-11-08 19:36:02,-6.97,-34.84,84.2,66,75,14.99,Broken clouds,0.0,0.0
535,Ojinaga,US,2019-11-08 19:36:02,29.56,-104.41,55.4,71,75,2.64,Broken clouds,0.0,0.0
536,Phuket,TH,2019-11-08 19:36:03,7.89,98.4,77.0,100,75,4.7,Fog,0.0,0.0
537,Kalininskaya,RU,2019-11-08 19:36:03,45.49,38.66,54.0,81,82,2.24,Broken clouds,0.0,0.0
538,Murray Bridge,AU,2019-11-08 19:36:03,-35.12,139.28,52.0,75,69,5.01,Broken clouds,0.0,0.0
539,Mokhsogollokh,RU,2019-11-08 19:36:03,61.4,128.95,-14.84,98,0,1.14,Clear sky,0.0,0.0
540,Penarroya-Pueblonuevo,ES,2019-11-08 19:36:03,38.3,-5.27,51.8,62,0,1.12,Clear sky,0.0,0.0
541,Voi,KE,2019-11-08 19:36:04,-3.4,38.57,70.84,87,64,4.97,Broken clouds,0.0,0.0
542,Wonthaggi,AU,2019-11-08 19:32:15,-38.6,145.59,48.99,78,77,14.54,Light rain,0.31,0.0
543,Jodiya,IN,2019-11-08 19:36:04,22.69,70.31,76.69,51,3,11.16,Clear sky,0.0,0.0
544,Springfield,US,2019-11-08 19:34:03,42.1,-72.59,36.0,40,75,14.99,Broken clouds,0.0,0.0
545,Kathmandu,NP,2019-11-08 19:36:04,27.71,85.32,59.0,93,40,2.24,Scattered clouds,0.0,0.0
546,Yumen,CN,2019-11-08 19:36:05,40.29,97.04,34.02,53,62,22.73,Broken clouds,0.0,0.0
547,Ormara,PK,2019-11-08 19:36:05,25.21,64.64,79.74,41,0,8.1,Clear sky,0.0,0.0
548,Orasje,RS,2019-11-08 19:36:05,42.95,22.1,55.4,82,80,1.12,Light rain,0.13,0.0
549,Cabrobo,BR,2019-11-08 19:36:05,-8.51,-39.31,91.18,22,100,12.26,Overcast clouds,0.0,0.0
550,Lashio,MM,2019-11-08 19:36:06,22.93,97.75,62.62,97,98,0.98,Light rain,1.25,0.0
551,Isabela,PH,2019-11-08 19:36:06,10.2,122.99,70.3,81,0,1.83,Clear sky,0.0,0.0
552,Kidal,ML,2019-11-08 19:36:06,18.44,1.41,77.09,18,0,2.89,Clear sky,0.0,0.0
553,Fairview,CA,2019-11-08 19:36:06,56.07,-118.38,21.99,73,90,11.41,Light snow,0.0,0.0
554,Praia Da Vitoria,PT,2019-11-08 19:36:07,38.73,-27.07,64.4,82,20,5.14,Few clouds,0.0,0.0
